[
    {
        "nome": "Stadio Artemio Franchi",
        "latitudine": 43.7806,
        "longitudine": 11.2824,
        "stadio_di": "calcio"
    },
    {
        "nome": "Stadio Luigi Ferraris",
        "latitudine": 44.4163,
        "longitudine": 8.9529,
        "stadio_di": "calcio"
    },
    {
        "nome": "Stadio Renato Dall'Ara",
        "latitudine": 44.4939,
        "longitudine": 11.309,
        "stadio_di": "calcio"
    },
    {
        "nome": "Stadio Olimpico Grande Torino",
        "latitudine": 45.0418,
        "longitudine": 7.6525,
        "stadio_di": "calcio"
    },
    {
        "nome": "Stadio Marcantonio Bentegodi",
        "latitudine": 45.4483,
        "longitudine": 10.9683,
        "stadio_di": "calcio"
    },
    {
        "nome": "Stadio San Siro",
        "latitudine": 45.4781,
        "longitudine": 9.123,
        "stadio_di": "calcio"
    },
    {
        "nome": "Stadio Olimpico",
        "latitudine": 41.9339,
        "longitudine": 12.4544,
        "stadio_di": "calcio"
    },
    {
        "nome": "Stadio Diego Armando Maradona",
        "latitudine": 40.827,
        "longitudine": 14.1932,
        "stadio_di": "calcio"
    },
    {
        "nome": "Stadio Artemio Franchi (Siena)",
        "latitudine": 43.3186,
        "longitudine": 11.3314,
        "stadio_di": "calcio"
    },
    {
        "nome": "Stadio Ennio Tardini",
        "latitudine": 44.7994,
        "longitudine": 10.3342,
        "stadio_di": "calcio"
    },
    {
        "nome": "Stadio Carlo Castellani",
        "latitudine": 43.7197,
        "longitudine": 10.9467,
        "stadio_di": "calcio"
    },
    {
        "nome": "Stadio Paolo Mazza",
        "latitudine": 44.8422,
        "longitudine": 11.6197,
        "stadio_di": "calcio"
    },
    {
        "nome": "Stadio Alberto Picco",
        "latitudine": 44.1053,
        "longitudine": 9.8283,
        "stadio_di": "calcio"
    },
    {
        "nome": "Stadio Pier Luigi Penzo",
        "latitudine": 45.4211,
        "longitudine": 12.3547,
        "stadio_di": "calcio"
    },
    {
        "nome": "Stadio Adriatico",
        "latitudine": 42.4542,
        "longitudine": 14.2261,
        "stadio_di": "calcio"
    },
    {
        "nome": "Stadio Arechi",
        "latitudine": 40.6417,
        "longitudine": 14.825,
        "stadio_di": "calcio"
    },
    {
        "nome": "Stadio Ezio Scida",
        "latitudine": 39.0833,
        "longitudine": 17.1222,
        "stadio_di": "calcio"
    },
    {
        "nome": "Stadio Benito Stirpe",
        "latitudine": 41.7,
        "longitudine": 13.3417,
        "stadio_di": "calcio"
    },
    {
        "nome": "Stadio Renato Curi",
        "latitudine": 43.1108,
        "longitudine": 12.3639,
        "stadio_di": "calcio"
    },
    {
        "nome": "Arco TN",
        "latitudine": 45.9136766,
        "longitudine": 10.882062
    },
    {
        "nome": "Ciaooo",
        "latitudine": 45.9136818,
        "longitudine": 10.8820769
    },
    {
        "nome": "Ciaooi",
        "latitudine": 45.9136818,
        "longitudine": 10.8820769
    }
]